{"type": "FeatureCollection", "features": [{"id": "0", "type": "Feature", "properties": {"Name": "Franz", "Years": "1970 - 1997", "Address": "Sch\u00f6nhauser Allee 36", "Postcode": 10435, "E/W": "east", "Opening": "1970", "Closing": "1997", "City": "Berlin", "lat": 52.5383047, "lng": 13.4127573}, "geometry": {"type": "Point", "coordinates": [13.4127573, 52.5383047]}}, {"id": "1", "type": "Feature", "properties": {"Name": "Knaack", "Years": "1952 - 2010", "Address": "Greifs\u00adwal\u00adder Stra\u00dfe 224", "Postcode": 10245, "E/W": "east", "Opening": "1952", "Closing": "2010", "City": "Berlin", "lat": 52.5303793, "lng": 13.4257478}, "geometry": {"type": "Point", "coordinates": [13.4257478, 52.5303793]}}, {"id": "2", "type": "Feature", "properties": {"Name": "Kreisjugendklub Pablo Neruda", "Years": "1984 - 2010", "Address": "Insel der Jugend", "Postcode": 12435, "E/W": "east", "Opening": "1984", "Closing": "2010", "City": "Berlin", "lat": 52.487222, "lng": 13.480556}, "geometry": {"type": "Point", "coordinates": [13.480556, 52.487222]}}, {"id": "3", "type": "Feature", "properties": {"Name": "Schoppenstube", "Years": "1963 - 2013", "Address": "Sch\u00f6nhauser Allee 44", "Postcode": 10435, "E/W": "east", "Opening": "1963", "Closing": "2013", "City": "Berlin", "lat": 52.5403977, "lng": 13.412576}, "geometry": {"type": "Point", "coordinates": [13.412576, 52.5403977]}}, {"id": "4", "type": "Feature", "properties": {"Name": "Abraxas", "Years": "1984 - 2009", "Address": "Kantstra\u00dfe 134", "Postcode": 10625, "E/W": "west", "Opening": "1984", "Closing": "2009", "City": "Berlin", "lat": 52.5058442, "lng": 13.3155413}, "geometry": {"type": "Point", "coordinates": [13.3155413, 52.5058442]}}, {"id": "5", "type": "Feature", "properties": {"Name": "Caf\u00e9 Swing", "Years": "1982 - 2002", "Address": "Nollendorf\u00adplatz 3-4", "Postcode": 10777, "E/W": "west", "Opening": "1982", "Closing": "2002", "City": "Berlin", "lat": 52.4994278, "lng": 13.3521517}, "geometry": {"type": "Point", "coordinates": [13.3521517, 52.4994278]}}, {"id": "6", "type": "Feature", "properties": {"Name": "Cheetah", "Years": "1968 - 1983", "Address": "Hasendheide 13", "Postcode": 10967, "E/W": "west", "Opening": "1968", "Closing": "1983", "City": "Berlin", "lat": 52.4875597, "lng": 13.4213035}, "geometry": {"type": "Point", "coordinates": [13.4213035, 52.4875597]}}, {"id": "7", "type": "Feature", "properties": {"Name": "Chez Romy Haag", "Years": "1974 - 1983", "Address": "Fug\u00adger\u00adstra\u00dfe 33", "Postcode": 10777, "E/W": "west", "Opening": "1974", "Closing": "1983", "City": "Berlin", "lat": 52.49898289999999, "lng": 13.3425656}, "geometry": {"type": "Point", "coordinates": [13.3425656, 52.49898289999999]}}, {"id": "8", "type": "Feature", "properties": {"Name": "Dschungel", "Years": "1978 - 1993", "Address": "N\u00fcrnberger Stra\u00dfe 53", "Postcode": 10789, "E/W": "west", "Opening": "1978", "Closing": "1993", "City": "Berlin", "lat": 52.5017219, "lng": 13.3381538}, "geometry": {"type": "Point", "coordinates": [13.3381538, 52.5017219]}}, {"id": "9", "type": "Feature", "properties": {"Name": "Ex n Pop", "Years": "1984 - 2016", "Address": "Manstein\u00adstra\u00dfe 14", "Postcode": 10783, "E/W": "west", "Opening": "1984", "Closing": "2016", "City": "Berlin", "lat": 52.4925455, "lng": 13.367111}, "geometry": {"type": "Point", "coordinates": [13.367111, 52.4925455]}}, {"id": "10", "type": "Feature", "properties": {"Name": "Linientreu", "Years": "1982 - 2008", "Address": "Budapes\u00adter Stra\u00dfe 42", "Postcode": 10787, "E/W": "west", "Opening": "1982", "Closing": "2008", "City": "Berlin", "lat": 52.5053703, "lng": 13.3370988}, "geometry": {"type": "Point", "coordinates": [13.3370988, 52.5053703]}}, {"id": "11", "type": "Feature", "properties": {"Name": "Loft", "Years": "1981 - 1998", "Address": "Nollendorfplatz 5", "Postcode": 10777, "E/W": "west", "Opening": "1981", "Closing": "1998", "City": "Berlin", "lat": 52.4990008, "lng": 13.3527232}, "geometry": {"type": "Point", "coordinates": [13.3527232, 52.4990008]}}, {"id": "12", "type": "Feature", "properties": {"Name": "Metropol", "Years": "1977 - 2005", "Address": "Nollendorfplatz 5", "Postcode": 10777, "E/W": "west", "Opening": "1977", "Closing": "2005", "City": "Berlin", "lat": 52.4990008, "lng": 13.3527232}, "geometry": {"type": "Point", "coordinates": [13.3527232, 52.4990008]}}, {"id": "13", "type": "Feature", "properties": {"Name": "Punkhouse", "Years": "1977 - 1978", "Address": "Kurf\u00fcrs\u00adten\u00addamm 156", "Postcode": 10709, "E/W": "west", "Opening": "1977", "Closing": "1978", "City": "Berlin", "lat": 52.4987213, "lng": 13.3032295}, "geometry": {"type": "Point", "coordinates": [13.3032295, 52.4987213]}}, {"id": "14", "type": "Feature", "properties": {"Name": "Quarter Latin", "Years": "1972 - 1989", "Address": "Potsda\u00admer Stra\u00dfe 96", "Postcode": 10785, "E/W": "west", "Opening": "1972", "Closing": "1989", "City": "Berlin", "lat": 52.5020852, "lng": 13.3641659}, "geometry": {"type": "Point", "coordinates": [13.3641659, 52.5020852]}}, {"id": "15", "type": "Feature", "properties": {"Name": "Risiko", "Years": "1981 - 1986", "Address": "Yorck\u00adstra\u00dfe 48", "Postcode": 10965, "E/W": "west", "Opening": "1981", "Closing": "1986", "City": "Berlin", "lat": 52.4929887, "lng": 13.3678994}, "geometry": {"type": "Point", "coordinates": [13.3678994, 52.4929887]}}, {"id": "16", "type": "Feature", "properties": {"Name": "Trash", "Years": "1982 - 2001", "Address": "Ora\u00adni\u00aden\u00adplatz 17", "Postcode": 10999, "E/W": "west", "Opening": "1982", "Closing": "2001", "City": "Berlin", "lat": 52.5023124, "lng": 13.4169165}, "geometry": {"type": "Point", "coordinates": [13.4169165, 52.5023124]}}, {"id": "17", "type": "Feature", "properties": {"Name": "UFO", "Years": "1988 - 1990", "Address": "K\u00f6pe\u00adni\u00adcker Stra\u00dfe 6", "Postcode": 10997, "E/W": "west", "Opening": "1988", "Closing": "1990", "City": "Berlin", "lat": 52.5022721, "lng": 13.4401846}, "geometry": {"type": "Point", "coordinates": [13.4401846, 52.5022721]}}]}